[
  {
    "name": "Kentec diving",
    "contactPerson": "Robert Thompson",
    "address": "66 Kareena Road",
    "city": "Miranda",
    "zip": "NSW 2228",
    "country": "Australia",
    "latlng": "-34.033148, 151.114153",
    "email": "bob.kentecdiving@gmail.com",
    "phone": "+61434564977",
    "instructor": "Yes",
    "technician": "Yes"
  },
  {
    "name": "Tauchen in Tirol",
    "contactPerson": "Dieter Kuchling",
    "address": "Eduard Bodem Gasse 1",
    "city": "Innsbruck",
    "zip": 6020,
    "country": "Austria",
    "latlng": "47.265109, 11.434329",
    "email": " info@tauchen-in-tirol.at",
    "phone": "+43 512 393484",
    "instructor": "No",
    "technician": "No"
  },
  {
    "name": "Tauchsport Steininger",
    "contactPerson": "Alfred Steininger",
    "address": "Siglgasse 48",
    "city": "Wiener Neustadt",
    "zip": "2700",
    "country": "Austria",
    "latlng": "47.824436, 16.238152",
    "email": "office@tauchsport-steininger.at",
    "phone": "+43 676 34 45 198",
    "instructor": "No",
    "technician": "No"
  },
  {
    "name": "Galicia Technical Diving",
    "contactPerson": "Steven Galicia",
    "address": "Astridlaan 30",
    "city": "Aarschot",
    "zip": "3200",
    "country": "Belgium",
    "latlng": "50.988331, 4.829691",
    "email": "steven@galicia.be",
    "phone": "+32 475 257 720",
    "instructor": "Yes",
    "technician": "Yes"
  },
  {
    "name": "CY vof",
    "contactPerson": "Yves Christiaens",
    "address": "Kanunnik Duclosstraat 1",
    "city": "Bruges",
    "zip": "8000",
    "country": "Belgium",
    "latlng": "51.218337, 3.203821",
    "email": "yves@divethrill.com",
    "phone": "+32 475 711 665",
    "instructor": "No",
    "technician": "No"
  },
  {
    "name": "Scubashop",
    "contactPerson": "Filip Coysman",
    "address": "Fonteinestraat 10",
    "city": "Pittem",
    "zip": "8740",
    "country": "Belgium",
    "latlng": "50.992385, 3.267751",
    "email": " Info@scubashop.be",
    "phone": "+32 472 596 659",
    "instructor": "No",
    "technician": "No"
  },
  {
    "name": "Aldotec",
    "contactPerson": "Alain Dobbelaere",
    "address": "Notendonk 17",
    "city": "Waarschoot",
    "zip": "9950",
    "country": "Belgium",
    "latlng": "51.146821, 3.602362",
    "email": "info@aldotec.be",
    "phone": "+32 475 49 19 46",
    "instructor": "No",
    "technician": "No"
  },
  {
    "name": "Marain Tec Diving",
    "contactPerson": "Philippe Marain",
    "address": "Rue des dames, 55",
    "city": "Wanfercée-Baulet",
    "zip": "5060",
    "country": "Belgium",
    "latlng": "50.464501, 4.588895",
    "email": "maraintecdiving@hotmail.fr",
    "phone": "+32 498 359 071",
    "instructor": "No",
    "technician": "No"
  },
  {
    "name": "International Training Brasil - Eduardo Macedo",
    "contactPerson": "Edoardo Macedo",
    "address": "Via L1 Norte - Shcn Comércio Local Norte 403 - bloco B sobreloja 103A, Asa Norte Comércio Local Norte 403",
    "city": "Brasília",
    "zip": "70835-520",
    "country": "Brazil",
    "latlng": "-15.779658, -47.875853",
    "email": "eduardo.macedo@tdisdi.com",
    "phone": null,
    "instructor": "No",
    "technician": "No"
  },
  {
    "name": "Synchron Ltd",
    "contactPerson": "Lyubomir Minchev",
    "address": "7 Transportna STR",
    "city": "Bourgas",
    "zip": "8000",
    "country": "Bulgaria",
    "latlng": "42.531493, 27.466140",
    "email": "office@synchronbg.com",
    "phone": "+35 956 840 060",
    "instructor": "No",
    "technician": "No"
  },
  {
    "name": "Alkazar Design Ltd.",
    "contactPerson": "Alexander Kirov",
    "address": "Rachka N38",
    "city": "Sofia",
    "zip": "1618",
    "country": "Bulgaria",
    "latlng": "42.692926, 23.312002",
    "email": "alex.kirov@gmail.com",
    "phone": "+35 988 774 7633",
    "instructor": "No",
    "technician": "No"
  },
  {
    "name": "Float N’ Flag Dive Centre",
    "contactPerson": "Brad Snyder",
    "address": "3245 Harvester Road",
    "city": "Burlington",
    "zip": "L7N 3T7",
    "country": "Canada",
    "latlng": "43.357126, -79.793677",
    "email": "brad@floatnflag.com",
    "phone": "905-399-4465",
    "instructor": "No",
    "technician": "No"
  },
  {
    "name": "Dive Tech Training Centre",
    "contactPerson": "Dan Humble",
    "address": "1624 HIGHWAY 2 EAST",
    "city": "MALLORYTOWN",
    "zip": "K0E1R0",
    "country": "Canada",
    "latlng": "44.499758, -75.851238",
    "email": "admin@divetech.ca",
    "phone": "(613) 923-1992",
    "instructor": "No",
    "technician": "No"
  },
  {
    "name": "DAN'S DIVE SHOP",
    "contactPerson": "Matt Mandziuk",
    "address": "329 Welland Ave",
    "city": "St. Catharine",
    "zip": "ON L2R 2R2",
    "country": "Canada",
    "latlng": "43.170838, -79.226842",
    "email": " INFO@DANSDIVESHOP.CA",
    "phone": "+19059842160",
    "instructor": "No",
    "technician": "No"
  },
  {
    "name": "Cinco Oceanos",
    "contactPerson": null,
    "address": "Av. San Francisco de Asís 150",
    "city": "Santiago",
    "zip": "00000",
    "country": "Chile",
    "latlng": "-33.373825, -70.515835",
    "email": "cincoceanos@gmail.com",
    "phone": null,
    "instructor": "No",
    "technician": "No"
  },
  {
    "name": "Mandarin Divers",
    "contactPerson": "Andreas Baumgaerner",
    "address": "Unit 305, 3/F Technology Plaza, 651 King's Road,",
    "city": "Hong Kong",
    "zip": null,
    "country": "China",
    "latlng": "22.292006, 114.207461",
    "email": "andy@mandarin-divers.com",
    "phone": "+852 2554 7110",
    "instructor": "No",
    "technician": "No"
  },
  {
    "name": "Chim Seui",
    "contactPerson": "Chim Seui",
    "address": "Sai Kung",
    "city": "Hong Kong",
    "zip": null,
    "country": "China",
    "latlng": "22.372187, 114.258442",
    "email": "chimseui@gmail.com",
    "phone": "+852 680 793 66",
    "instructor": "No",
    "technician": "No"
  },
  {
    "name": "Xtreme Deep Asia Limited",
    "contactPerson": "Edmund Yiu",
    "address": "#C22, 12/F, Tung Chong Fty Bldg, 657 King\\'s Rd",
    "city": "Hong Kong",
    "zip": null,
    "country": "China",
    "latlng": "22.291889, 114.207900",
    "email": "edmund@xtremedeepasia.com",
    "phone": "+852 93 738 101",
    "instructor": "Yes",
    "technician": "Yes"
  },
  {
    "name": "Leonardo Bucea",
    "contactPerson": "Leonardo Giampaoli",
    "address": "World Business Center",
    "city": "Bogota",
    "zip": "00000",
    "country": "Colombia",
    "latlng": "4.681001, -74.117282",
    "email": "leonardobucea@gmail.com",
    "phone": "+57 312 419 1510",
    "instructor": "No",
    "technician": "No"
  },
  {
    "name": "Technical Diving Colombia",
    "contactPerson": "Oscar Ruiz",
    "address": "Calle 20 82-52 Ofc 3-27 Centro Empresarial Hayuelos",
    "city": "Bogota",
    "zip": "110931",
    "country": "Colombia",
    "latlng": "4.663903, -74.130702",
    "email": " oscar.ruiz@tdc.com.co",
    "phone": null,
    "instructor": "Yes",
    "technician": "No"
  },
  {
    "name": "Deibis Seguro",
    "contactPerson": null,
    "address": "Calle San Pedro Martir # 10 - 66, Bolivar",
    "city": "Cartagena",
    "zip": "0000",
    "country": "Colombia",
    "latlng": "10.426574, -75.545705",
    "email": " deibis.seguro@gmail.com",
    "phone": "+5756646155",
    "instructor": "Yes",
    "technician": "Yes"
  },
  {
    "name": "S.H.A.R.K. d.o.o.",
    "contactPerson": "Davor Bursic",
    "address": "Munida 86",
    "city": "Medulin",
    "zip": "52203",
    "country": "Croatia",
    "latlng": "44.825740, 13.928849",
    "email": " info@diving-shark.hr",
    "phone": "+385 98 366 110",
    "instructor": "No",
    "technician": "No"
  },
  {
    "name": "Dream Dive s.r.o.",
    "contactPerson": "Nikolaj Varčev",
    "address": "Smetanova 3",
    "city": "Brno",
    "zip": "60200",
    "country": "Czech republic",
    "latlng": "49.201050, 16.600668",
    "email": "potapeni@dreamdive.cz",
    "phone": "+420602 744 724",
    "instructor": "No",
    "technician": "No"
  },
  {
    "name": "TRYGON sport s.r.o.",
    "contactPerson": "Marcel Zezula",
    "address": "Sportovní 4",
    "city": "Brno",
    "zip": "60200",
    "country": "Czech republic",
    "latlng": "49.214461, 16.606966",
    "email": " info@trygonbrno.cz",
    "phone": "+420541243872",
    "instructor": "No",
    "technician": "No"
  },
  {
    "name": "D.E.A.W.S. Centrum s.r.o.",
    "contactPerson": "Petr Král",
    "address": "Opletalova 1253/6",
    "city": "Jablonec nad Nisou",
    "zip": "46601",
    "country": "Czech republic",
    "latlng": "50.725801, 15.167388",
    "email": "deaws@deaws.cz",
    "phone": "+420603 293 626",
    "instructor": "No",
    "technician": "No"
  },
  {
    "name": "DEEP CONTROL s.r.o.",
    "contactPerson": null,
    "address": "Otín 249",
    "city": "Jindřichův Hradec",
    "zip": "37701",
    "country": "Czech republic",
    "latlng": "49.133884, 15.042903",
    "email": " info@potapecske.cz",
    "phone": "+420 603 447 939",
    "instructor": "No",
    "technician": "No"
  },
  {
    "name": "Outdoorcentrum",
    "contactPerson": "Jaromír Štěpán",
    "address": "Pražská 945",
    "city": "Kolín",
    "zip": "28002",
    "country": "Czech republic",
    "latlng": "50.028884, 15.196897",
    "email": "jardastepan@centrum.cz",
    "phone": "+420777 148 846",
    "instructor": "No",
    "technician": "No"
  },
  {
    "name": "Snakesub s.r.o.",
    "contactPerson": "Jaroslav Kočárek",
    "address": "U Nisy 853/18",
    "city": "Liberec",
    "zip": "46003",
    "country": "Czech republic",
    "latlng": "50.760355, 15.050321",
    "email": "info@snakesub.cz",
    "phone": "+420 603 493 584",
    "instructor": "No",
    "technician": "No"
  },
  {
    "name": "Tomáš Klojda - Deep\\'N\\'Down",
    "contactPerson": "Tomáš Klojda",
    "address": "Blahníkova 5",
    "city": "Praha 3",
    "zip": "13000",
    "country": "Czech republic",
    "latlng": "50.085238, 14.447411",
    "email": "shop@deepndown.cz",
    "phone": "222 540 391",
    "instructor": "No",
    "technician": "No"
  },
  {
    "name": "BLUE-CELL, s.r.o.",
    "contactPerson": "Jan Žilina",
    "address": "Na Beránce 57/2",
    "city": "Praha 6",
    "zip": "16000",
    "country": "Czech republic",
    "latlng": "50.100766, 14.364690",
    "email": "jan@zilina.cz",
    "phone": "+420 602 285 180",
    "instructor": "No",
    "technician": "No"
  },
  {
    "name": "Octopus RK",
    "contactPerson": "Viktor Teimer",
    "address": "U Stadionu 1529",
    "city": "Rychnov nad Kněžnou",
    "zip": "51601",
    "country": "Czech republic",
    "latlng": "50.165917, 16.284978",
    "email": "info@octopus-rk.cz",
    "phone": "+420 776 333 052",
    "instructor": "No",
    "technician": "No"
  },
  {
    "name": "SEAMASTER s.r.o.",
    "contactPerson": "Tomáš Abraham",
    "address": "Masarykova 269/90",
    "city": "Teplice",
    "zip": "41501",
    "country": "Czech republic",
    "latlng": "50.648367, 13.835644",
    "email": "seamaster@seamaster.cz",
    "phone": "+420777964186",
    "instructor": "No",
    "technician": "No"
  },
  {
    "name": "Stanislav Hejhal",
    "contactPerson": null,
    "address": "Vinaře 183",
    "city": "Vinaře",
    "zip": "28601",
    "country": "Czech republic",
    "latlng": "49.906823, 15.499676",
    "email": " hejhal.s@seznam.cz",
    "phone": "+420608133413",
    "instructor": "No",
    "technician": "No"
  },
  {
    "name": "Aquatic Marine",
    "contactPerson": "Preben Dandanell-Fridthjof",
    "address": "Sommervej 19",
    "city": "Aarhus",
    "zip": "8210",
    "country": "Denmark",
    "latlng": "56.172881, 10.154666",
    "email": "Preben@aquatic.dk",
    "phone": "+4586243233",
    "instructor": "No",
    "technician": "No"
  },
  {
    "name": "Kingfish",
    "contactPerson": "Henrik Rudolf",
    "address": "Scandiagade 15",
    "city": "Copenhagen",
    "zip": "2450",
    "country": "Denmark",
    "latlng": "55.653025, 12.542620",
    "email": "dealers@kingfish.dk",
    "phone": "+45 33 13 83 83",
    "instructor": "No",
    "technician": "No"
  },
  {
    "name": "N.O.W. Dive",
    "contactPerson": "Ben Bos",
    "address": "Vestermøllevej 3",
    "city": "Skandenborg",
    "zip": 8660,
    "country": "Denmark",
    "latlng": "56.031417, 9.963713",
    "email": "ben@nowdive.dk",
    "phone": "+45 206 61326",
    "instructor": "No",
    "technician": "No"
  },
  {
    "name": "Aalto Group Oy",
    "contactPerson": "Roni Suvanto",
    "address": "Ruosilankuja 3",
    "city": "Helsinki",
    "zip": "00390",
    "country": "Finland",
    "latlng": "60.236445, 24.860616",
    "email": " info@varuste.net",
    "phone": "+358 9 4540707",
    "instructor": "No",
    "technician": "No"
  },
  {
    "name": "Ab Sea&Subsea Oy",
    "contactPerson": " Jouni Piispanen",
    "address": "Vuoripolku 20",
    "city": "Inkoo",
    "zip": "10210",
    "country": "Finland",
    "latlng": "60.053706, 24.011574\n60.053706, 24.011574\n60.053706, 24.011574",
    "email": "jouni.piispanen@seasubsea.com",
    "phone": "+35 840 060 3404",
    "instructor": "No",
    "technician": "No"
  },
  {
    "name": "OK PLONGEE - Diving Equipement",
    "contactPerson": "Joel Prax",
    "address": "6 rue des Frères Peugeot",
    "city": "Balma",
    "zip": "31130",
    "country": "France",
    "latlng": "43.626092, 1.487239",
    "email": "okp@ok-plongee.com",
    "phone": "+33 (0)5 61 240 273",
    "instructor": "No",
    "technician": "No"
  },
  {
    "name": "SPORT TEK EVOLUTION",
    "contactPerson": "Romain Lhoste",
    "address": "150 Boulevard de la République",
    "city": "Cannes",
    "zip": "06400",
    "country": "France",
    "latlng": "43.564509, 7.021324",
    "email": " romain.lhoste@sfr.fr",
    "phone": "+33 637 783 085",
    "instructor": "No",
    "technician": "No"
  },
  {
    "name": "PROTEUSHOP",
    "contactPerson": "Gregory Vernoux",
    "address": "171, chemin de Samois",
    "city": "Champagne Sur Seine",
    "zip": "77430",
    "country": "France",
    "latlng": "48.404257, 2.805759",
    "email": "gregory@proteushop.fr",
    "phone": "+33662714404",
    "instructor": "No",
    "technician": "No"
  },
  {
    "name": "BIGATA AIR COMPRIME",
    "contactPerson": "Claire Dothee",
    "address": "50 Avenue René Antoune - ZAC Mermoz",
    "city": "Eysines",
    "zip": "33320",
    "country": "France",
    "latlng": "44.864227, -0.655880",
    "email": "administratif.plongee@bigata.fr",
    "phone": "+33 556 280 121",
    "instructor": "No",
    "technician": "No"
  },
  {
    "name": "Hippoconsulting",
    "contactPerson": " Jeff Andre",
    "address": "1245 Chemin de Peirouard",
    "city": "Lorgues",
    "zip": "83510",
    "country": "France",
    "latlng": "43.478928, 6.359506",
    "email": "hippoconsulting@hippoconsulting.fr",
    "phone": "+33 619 021 873",
    "instructor": "No",
    "technician": "No"
  },
  {
    "name": "Plongee Tek Lyon",
    "contactPerson": "Jean-Paul Leroux",
    "address": "25 Chemin du bois",
    "city": "Saint-Alban-de-Roche",
    "zip": "38008",
    "country": "France",
    "latlng": "45.585632, 5.222220",
    "email": "jp@leroux.eu",
    "phone": "+33 682 305 005",
    "instructor": "No",
    "technician": "No"
  },
  {
    "name": "HLBFISH",
    "contactPerson": "Harold de Nanteuil",
    "address": "2 impasse des Chevau-Legers",
    "city": "Versailles",
    "zip": "78000",
    "country": "France",
    "latlng": "48.800261, 2.126007",
    "email": "info@hlbdive.com",
    "phone": "+33 6 80 73 12 19",
    "instructor": "No",
    "technician": "No"
  },
  {
    "name": "H-Sports",
    "contactPerson": "Alexander Harmann",
    "address": "Alamannenstraße 32",
    "city": "Altheim",
    "zip": "88499",
    "country": "Germany",
    "latlng": "48.137073, 9.444710",
    "email": "info@h-sports.de",
    "phone": "+49 7371 909 191",
    "instructor": "No",
    "technician": "No"
  },
  {
    "name": "TecDiveEquipment",
    "contactPerson": " Lothar Becker",
    "address": "Thalacker 5a",
    "city": "Bad Aibling",
    "zip": "83043",
    "country": "Germany",
    "latlng": "47.891751, 12.019011",
    "email": " lothar.becker@tecdiveequipment.de",
    "phone": "+49 806 149 5743",
    "instructor": "No",
    "technician": "No"
  },
  {
    "name": "TEC-Divesysteme",
    "contactPerson": "Thomas Swiglowski",
    "address": "Raßmannsdorfer Str. 4",
    "city": "Beeskow",
    "zip": "15848",
    "country": "Germany",
    "latlng": "52.179061, 14.248679",
    "email": "info@tec-divesysteme.com",
    "phone": "+49 336 135 7000",
    "instructor": "No",
    "technician": "No"
  },
  {
    "name": "Tauchtreff Dresden",
    "contactPerson": "Peter Panitz",
    "address": "Dornblüthstraße 19",
    "city": "Dresden",
    "zip": "01277",
    "country": "Germany",
    "latlng": "51.044945, 13.800664",
    "email": "info@tauchtreffdd.de",
    "phone": "+49 3513109120",
    "instructor": "No",
    "technician": "No"
  },
  {
    "name": "TaucherQuelle",
    "contactPerson": " Adalbert Müller",
    "address": "Komturplatz 2",
    "city": "Freiburg",
    "zip": "79108",
    "country": "Germany",
    "latlng": "48.013016, 7.854438",
    "email": "am@taucherquelle.de",
    "phone": "+49 761 600 68589",
    "instructor": "No",
    "technician": "No"
  },
  {
    "name": "mischgastauchen.de",
    "contactPerson": "Timo Zischka",
    "address": "Lauterbachstr. 7b",
    "city": "Geretsried/Gelting",
    "zip": "82538",
    "country": "Germany",
    "latlng": "47.887984, 11.429298",
    "email": " info@mischgastauchen.de",
    "phone": "+49 171 1263888",
    "instructor": "Yes",
    "technician": "No"
  },
  {
    "name": "Tauchbasis SAMsDIVING",
    "contactPerson": "Ralph Ranschaert",
    "address": "Klosterweg",
    "city": "Goch",
    "zip": "47574",
    "country": "Germany",
    "latlng": "51.707882, 6.091522",
    "email": "info@samsdiving.com",
    "phone": "+49 2827 3449825",
    "instructor": "No",
    "technician": "No"
  },
  {
    "name": "Tekki School",
    "contactPerson": "Thomas Stommel",
    "address": "Im Winkel 36",
    "city": "Hagen",
    "zip": "58091",
    "country": "Germany",
    "latlng": "51.293336, 7.530339",
    "email": "info@tekki-shop.de",
    "phone": "+49 17621200714",
    "instructor": "No",
    "technician": "No"
  },
  {
    "name": "AS-TecDive",
    "contactPerson": "Andreas Söhnel",
    "address": "An der Schleifmühl 1",
    "city": "Hüttenberg",
    "zip": "35440",
    "country": "Germany",
    "latlng": "50.525410, 8.674585",
    "email": "shop@as-tecdive.de",
    "phone": "+49-163-7684001",
    "instructor": "No",
    "technician": "No"
  },
  {
    "name": "Underwater Pro TEK",
    "contactPerson": "Manuel Reitz",
    "address": "Kappelstr.12",
    "city": "Melsbach",
    "zip": "56566",
    "country": "Germany",
    "latlng": "50.428770, 7.519079",
    "email": "manuel@underwater-pro-tek.de",
    "phone": "0152/ 53 44 59 44",
    "instructor": "No",
    "technician": "No"
  },
  {
    "name": "Dive Center Paradise",
    "contactPerson": null,
    "address": "Eversbuschstraße 87",
    "city": "München",
    "zip": "80999",
    "country": "Germany",
    "latlng": "48.188378, 11.460575\n48.188378, 11.460575\n48.188378, 11.460575",
    "email": "info@divecenter-paradise.com",
    "phone": "+49 89 81 89 46 47",
    "instructor": "No",
    "technician": "No"
  },
  {
    "name": "DiveSupport GmbH",
    "contactPerson": "Christian Hohenester",
    "address": "Tsingtauerstr. 70a",
    "city": "München",
    "zip": "81827",
    "country": "Germany",
    "latlng": "48.103795, 11.696061",
    "email": "kontakt@divesupport.de",
    "phone": "+49 893 078 0129",
    "instructor": "No",
    "technician": "No"
  },
  {
    "name": "Tauchservice Münster",
    "contactPerson": "Daniel Schulte",
    "address": "Berdel 7",
    "city": "Münster",
    "zip": "48155",
    "country": "Germany",
    "latlng": "51.924546, 7.760380",
    "email": "mail@tauchservice.info",
    "phone": "0251-6743237",
    "instructor": "No",
    "technician": "No"
  },
  {
    "name": "Tec Dive Equipment",
    "contactPerson": " Henry Singer",
    "address": "Kesselberg 13",
    "city": "Nordhausen",
    "zip": "99734",
    "country": "Germany",
    "latlng": "51.467870, 10.806429",
    "email": "henry.singer@tec-dive-shop.de",
    "phone": "+49 3631689801",
    "instructor": "No",
    "technician": "No"
  },
  {
    "name": "TecServ",
    "contactPerson": "Manfred Führmann",
    "address": "Lilienweg 7",
    "city": "Plattling",
    "zip": "94447",
    "country": "Germany",
    "latlng": "48.769885, 12.863379",
    "email": "info@tecserv.org",
    "phone": "+49 1708 955 841",
    "instructor": "No",
    "technician": "No"
  },
  {
    "name": "Tauchschule Calypso",
    "contactPerson": "Dirk Möller",
    "address": "Am Bruch 1",
    "city": "Preußisch Oldendorf",
    "zip": "32361",
    "country": "Germany",
    "latlng": "52.344911, 8.503684",
    "email": "dirk.moeller@tauchschule-calypso.com",
    "phone": "+49 1708 955 841",
    "instructor": "No",
    "technician": "No"
  },
  {
    "name": "Faszination-Tauchsport",
    "contactPerson": "Torsten Sommerlatt",
    "address": "Rudolf-Diesel-Ring 6",
    "city": "Sauerlach",
    "zip": "82054",
    "country": "Germany",
    "latlng": "47.968728, 11.661654",
    "email": "service@faszination-tauchsport.de",
    "phone": "+49-8104-5868578",
    "instructor": "No",
    "technician": "No"
  },
  {
    "name": "Deepstop",
    "contactPerson": "Hans Drexler",
    "address": "Duisburgerstr.4",
    "city": "Schwetzingen",
    "zip": "68723",
    "country": "Germany",
    "latlng": "49.402446, 8.558194",
    "email": "shop@deepstop.de",
    "phone": "+49 620 226 187",
    "instructor": "No",
    "technician": "No"
  },
  {
    "name": "sidemount-explorer",
    "contactPerson": " Oliver Steinle",
    "address": "Glasbergweg 7a",
    "city": "Titisee-Neustadt",
    "zip": "79822",
    "country": "Germany",
    "latlng": "47.921950, 8.185342",
    "email": "info@sidemount-explorer.com",
    "phone": "+49 7651 2049673",
    "instructor": "No",
    "technician": "No"
  },
  {
    "name": "Tauchbasis Zwenkauer See GmbH & Co. KG",
    "contactPerson": " Robert Lange",
    "address": "Hafenstrasse 5",
    "city": "Zwenkau",
    "zip": "04442",
    "country": "Germany",
    "latlng": "51.233777, 12.335125",
    "email": "info@lange-tauchen.de",
    "phone": "+49 341 256 01299",
    "instructor": "No",
    "technician": "No"
  },
  {
    "name": "In Deep",
    "contactPerson": "Ben Kellett & James Balouza",
    "address": "70 Lawrence Road",
    "city": "Plymouth",
    "zip": "PL9 9SJ",
    "country": "Great Britain",
    "latlng": "50.359953, -4.127458",
    "email": " info@indeep.co.uk",
    "phone": "+44 175 240 5400",
    "instructor": "No",
    "technician": "No"
  },
  {
    "name": "MR Diving",
    "contactPerson": "Matthew Robinson",
    "address": "-",
    "city": "Stafford",
    "zip": "ST18 9NX",
    "country": "Great Britain",
    "latlng": "52.717032, -2.084920",
    "email": " matt@mrdiving.co.uk",
    "phone": "+44 7967031726",
    "instructor": "No",
    "technician": "No"
  },
  {
    "name": "NARKED AT 90 LTD",
    "contactPerson": "John Routley",
    "address": "15 Bentley court",
    "city": "Wellingborough",
    "zip": "NN8 4BQ",
    "country": "Great Britain",
    "latlng": "52.321553, -0.682260",
    "email": " info@narkedat90.com",
    "phone": "+44 1933681225",
    "instructor": "No",
    "technician": "No"
  },
  {
    "name": "Aqua Team EE",
    "contactPerson": "Manthos Marras",
    "address": "Agiou Antoniou 59",
    "city": "Vrilissia",
    "zip": "15235",
    "country": "Greece",
    "latlng": "38.033539, 23.839756",
    "email": "info@aquateam.gr",
    "phone": "+302108041485",
    "instructor": "No",
    "technician": "No"
  },
  {
    "name": "Gazda es Tarsa Kft. (Water Resistant Dive Center)",
    "contactPerson": "Péter Bringye",
    "address": "Knézich utca 8.",
    "city": "Budapest",
    "zip": "1092",
    "country": "Hungary",
    "latlng": "47.484868, 19.066833",
    "email": "peter.bringye@gmail.com",
    "phone": "+36 304 628 667",
    "instructor": "No",
    "technician": "No"
  },
  {
    "name": "Diver Kft.",
    "contactPerson": " Tamas Miklos",
    "address": "Semmelweis u. 4. 8/3",
    "city": "Szekesfehervár",
    "zip": "8000",
    "country": "Hungary",
    "latlng": "47.196719, 18.413468",
    "email": "thomas@diver.hu",
    "phone": "+36 209 280 727",
    "instructor": "No",
    "technician": "No"
  },
  {
    "name": "DivinDec Scuba",
    "contactPerson": "Declan Burke",
    "address": "An Grianan, Golf Course Road",
    "city": "Letterkenny",
    "zip": "F92AXP6",
    "country": "Ireland",
    "latlng": "54.968216, -7.682393",
    "email": "divindec@gmail.com",
    "phone": "+353 872 876 372",
    "instructor": "No",
    "technician": "No"
  },
  {
    "name": "Auto-Partner",
    "contactPerson": " Piotr Dybikowski",
    "address": "7 Carrig Rua",
    "city": "Nenagh",
    "zip": "Co. Tipperary",
    "country": "Ireland",
    "latlng": "52.868418, -8.219422",
    "email": "piotr.dybikowski@gmail.com",
    "phone": "+35 3868600027",
    "instructor": "No",
    "technician": "No"
  },
  {
    "name": "DecoStop Israel",
    "contactPerson": "Nir Tzemach",
    "address": "Jabotinsky 58",
    "city": "Holon",
    "zip": "5829318",
    "country": "Israel",
    "latlng": "32.016434, 34.787648",
    "email": "nir@decostop.co.il",
    "phone": "+972525777062",
    "instructor": "No",
    "technician": "No"
  },
  {
    "name": "AMBIENTE ACQUA sas",
    "contactPerson": "Alessandro Fronchetti",
    "address": "Via Sant\\'Anna, 19",
    "city": "Arco",
    "zip": "38062",
    "country": "Italy",
    "latlng": "45.918811, 10.887999",
    "email": "info@ambienteacqua.com",
    "phone": "+39 0464 510366",
    "instructor": "No",
    "technician": "No"
  },
  {
    "name": "Italgoods",
    "contactPerson": " Guido Lapucci",
    "address": "Via Giacomo Matteotti 1",
    "city": "Arese",
    "zip": "20020",
    "country": "Italy",
    "latlng": "45.550283, 9.078079",
    "email": "info@italgoods.com",
    "phone": "+393485625112",
    "instructor": "No",
    "technician": "No"
  },
  {
    "name": "Nautica Mare SRL di Canossa",
    "contactPerson": "Massimiliano Canossa",
    "address": "Via Verona 15",
    "city": "Caldiero Verona",
    "zip": "37042",
    "country": "Italy",
    "latlng": "45.418015, 11.151594",
    "email": "sales@nauticamare.it",
    "phone": "+39 045 765 0168",
    "instructor": "No",
    "technician": "No"
  },
  {
    "name": "Ferrucci Aldo",
    "contactPerson": null,
    "address": "Via Valgoi 30/23",
    "city": "Genova",
    "zip": "16144",
    "country": "Italy",
    "latlng": "16144 Genova GE, Itálie",
    "email": "aldoferrucci@me.com",
    "phone": "+39 010 860 0031",
    "instructor": "Yes",
    "technician": "No"
  },
  {
    "name": "OLOTURIA SUB DC",
    "contactPerson": "Iaria Gianmichele",
    "address": "VIA CONSOLARE POMPEA 253/255",
    "city": "Messina",
    "zip": "98168",
    "country": "Italy",
    "latlng": "38.229730, 15.569796",
    "email": "gianmichele.iaria@diveraid.it",
    "phone": "+39336887529",
    "instructor": "No",
    "technician": "No"
  },
  {
    "name": "UTRtek UK Ltd",
    "contactPerson": "Massimo Barnini",
    "address": "Piazza Quattro Novembre, 4",
    "city": "Milano",
    "zip": "20124",
    "country": "Italy",
    "latlng": "45.487235, 9.203146",
    "email": "utrtek.segreteria@yahoo.it",
    "phone": "+39 331 6512945",
    "instructor": "No",
    "technician": "No"
  },
  {
    "name": "Talassa Sport Srl",
    "contactPerson": "Quaranta Domenico",
    "address": "Via V. Morello 21/23",
    "city": "Rome",
    "zip": "00157",
    "country": "Italy",
    "latlng": "41.909257, 12.539585",
    "email": "mimmo@talassa.it",
    "phone": "+393357277871",
    "instructor": "No",
    "technician": "No"
  },
  {
    "name": "Sea Dweller Divers di Edoardo Pavia",
    "contactPerson": null,
    "address": "Via delle Lucarie 72",
    "city": "Rome",
    "zip": "00138",
    "country": "Italy",
    "latlng": "42.005666, 12.523410",
    "email": " info@seadweller.it",
    "phone": "+39068887113",
    "instructor": "Yes",
    "technician": "Yes"
  },
  {
    "name": "Diving Fraula",
    "contactPerson": "Federico de Maglie",
    "address": "Frazione La Fraula n 32",
    "city": "Santa Cesarea Terme",
    "zip": "73020",
    "country": "Italy",
    "latlng": "40.074848, 18.477148",
    "email": "info@divingfraula.it",
    "phone": "+39 393 249 9449",
    "instructor": "No",
    "technician": "No"
  },
  {
    "name": "Nautilustore",
    "contactPerson": "Davide Mottola",
    "address": "via Gianni Cozzi 1",
    "city": "Santo Stefano al Mare",
    "zip": "18010",
    "country": "Italy",
    "latlng": "43.836952, 7.907351",
    "email": "info@nautilustdc.com",
    "phone": "+39 0184 481055",
    "instructor": "No",
    "technician": "No"
  },
  {
    "name": "Facla sport",
    "contactPerson": "Fabio Filippi",
    "address": "Via circumvallazione, 131",
    "city": "Torre del Greco",
    "zip": "80059",
    "country": "Italy",
    "latlng": "40.788835, 14.372362",
    "email": "Info@faclasport.it",
    "phone": "+390818493642",
    "instructor": "No",
    "technician": "No"
  },
  {
    "name": "Blue Edge srl",
    "contactPerson": "Marco Valeni",
    "address": "Via delle Ghiaie 22",
    "city": "Trento",
    "zip": "38122",
    "country": "Italy",
    "latlng": "46.055469, 11.115870",
    "email": "info@bluedge.it",
    "phone": "+39 3475041939",
    "instructor": "No",
    "technician": "No"
  },
  {
    "name": "Net Sales srl",
    "contactPerson": "Massimo Mencarelli",
    "address": "Via Reginato, 85 H",
    "city": "Treviso",
    "zip": "31100",
    "country": "Italy",
    "latlng": "45.653743, 12.191560",
    "email": "mencarellimax@gmail.com",
    "phone": "+39347522371",
    "instructor": "Yes",
    "technician": "Yes"
  },
  {
    "name": "Blusub snc",
    "contactPerson": " Stefano Zaffonato",
    "address": "Strada Cà Balbi, 76/78",
    "city": "Vicenza",
    "zip": "36100",
    "country": "Italy",
    "latlng": "45.539519, 11.591105",
    "email": " info@blusub.it",
    "phone": "+39 444 911217",
    "instructor": "No",
    "technician": "No"
  },
  {
    "name": "Masayoshi Kondo",
    "contactPerson": null,
    "address": "2-2-14-306 Matsuo, Naha",
    "city": "Okinawa",
    "zip": "900-0014",
    "country": "Japan",
    "latlng": "26.212669, 127.685876",
    "email": "ccrdiver@live.jp",
    "phone": "81(0)989433589",
    "instructor": "Yes",
    "technician": "No"
  },
  {
    "name": "Kyriakos Freres",
    "contactPerson": "Karim Kyriakos",
    "address": "Ain el Mreisseh",
    "city": "Beirut",
    "zip": null,
    "country": "Lebanon",
    "latlng": "33.900027, 35.489396",
    "email": "kyriakos@kyriakos-lb.com",
    "phone": "+961 1 362752",
    "instructor": "No",
    "technician": "No"
  },
  {
    "name": "Skoobaholik Sdn. Bhd.",
    "contactPerson": null,
    "address": "29-2, Plaza Danau 2, Jalan 4/109F, Taman",
    "city": "Kuala Lumpur",
    "zip": "58100",
    "country": "Malaysia",
    "latlng": "3.098742, 101.687344",
    "email": "mohan@skoobaholik.com",
    "phone": "+60122127909",
    "instructor": "No",
    "technician": "No"
  },
  {
    "name": "Prestige Scuba Sdn Bhd",
    "contactPerson": "Lau Sin Hwa",
    "address": "No. 3A-G, Jalan Perubatan 4",
    "city": "Pandan Indah",
    "zip": "55100",
    "country": "Malaysia",
    "latlng": "3.128235, 101.750978",
    "email": " sinhwa@prestigescuba.com",
    "phone": "+60162015588",
    "instructor": "No",
    "technician": "No"
  },
  {
    "name": "Speleo Zone",
    "contactPerson": "David Dusek",
    "address": "Calle 6 norte, Avenida 55",
    "city": "Playa del Carmen",
    "zip": "77710",
    "country": "Mexico",
    "latlng": "20.636032, -87.082196",
    "email": "info@speleozone.com",
    "phone": "(984)1300944",
    "instructor": "No",
    "technician": "No"
  },
  {
    "name": "Boogeyman Diving",
    "contactPerson": null,
    "address": "Carnapstraat 148",
    "city": "Amsterdam",
    "zip": "1062KT",
    "country": "Netherlands",
    "latlng": "52.353655, 4.839260",
    "email": "info@boogeymandiving.com",
    "phone": "+31611997816",
    "instructor": "No",
    "technician": "No"
  },
  {
    "name": "Underwater Productions",
    "contactPerson": "Roel Suk",
    "address": "Trompetboomhof 15",
    "city": "Diemen",
    "zip": "1112GG",
    "country": "Netherlands",
    "latlng": "52.336175, 4.952731",
    "email": "info@duikcursussen.nl",
    "phone": "+31 6 5167 6979",
    "instructor": "No",
    "technician": "No"
  },
  {
    "name": "Scuba Support",
    "contactPerson": "Eddy van Vliet",
    "address": "Franciscusweg 10-1",
    "city": "Hilversum",
    "zip": "1216SK",
    "country": "Netherlands",
    "latlng": "52.212751, 5.141463",
    "email": " info@scubasupport.nl",
    "phone": "+31(0)648511848",
    "instructor": "No",
    "technician": "No"
  },
  {
    "name": "Technical diving college",
    "contactPerson": "Gerard van der Kolk",
    "address": "Rozenstraat 84",
    "city": "Hilversum",
    "zip": "1214 BW",
    "country": "Netherlands",
    "latlng": "52.217856, 5.170292",
    "email": "gerard@technicaldivingcollege.nl",
    "phone": "+31 622414617",
    "instructor": "No",
    "technician": "No"
  },
  {
    "name": "Diveplace",
    "contactPerson": "Ferdinand van Luttikhuizen",
    "address": "Proostwetering 101b",
    "city": "Utrecht",
    "zip": "3543AC",
    "country": "Netherlands",
    "latlng": "52.114444, 5.038514",
    "email": "ferdinand@diveplace.nl",
    "phone": "+31 302412022",
    "instructor": "No",
    "technician": "No"
  },
  {
    "name": "4DIVERS Veenendaal",
    "contactPerson": " Lex Schotema",
    "address": "Arsenaal 5A",
    "city": "Veenendaal",
    "zip": "3905NN",
    "country": "Netherlands",
    "latlng": "52.044852, 5.558421",
    "email": "info@4divers.nl",
    "phone": "+31 318 554800",
    "instructor": "No",
    "technician": "No"
  },
  {
    "name": "Jachthaven Achterbos VOF",
    "contactPerson": " Cees den Toom",
    "address": "Achterbos 22B",
    "city": "Vinkeveen",
    "zip": "3645CD",
    "country": "Netherlands",
    "latlng": "52.225469, 4.926165",
    "email": " info@scuba-academie.nl",
    "phone": "+31627510874",
    "instructor": "No",
    "technician": "No"
  },
  {
    "name": "Duikcentrum De Beldert",
    "contactPerson": "Gerard van der Heijden",
    "address": "Zoelense Zandweg 1",
    "city": "Zoelen",
    "zip": "4011LW",
    "country": "Netherlands",
    "latlng": "51.921280, 5.436946",
    "email": " info@beldert.nl",
    "phone": "+31344624505",
    "instructor": "No",
    "technician": "No"
  },
  {
    "name": "Scubatron, Inc.",
    "contactPerson": "Gregory Borodiansky",
    "address": "50 Alverson Loop",
    "city": "Staten Island",
    "zip": "10309",
    "country": "New York",
    "latlng": "40.543430, -74.204668",
    "email": "gb20090101@gmail.com",
    "phone": "6462831406",
    "instructor": "No",
    "technician": "No"
  },
  {
    "name": "Fue.no",
    "contactPerson": "Gunnar Midtgaard",
    "address": "Ostensjoeveien 7",
    "city": "Oslo",
    "zip": "0661",
    "country": "Norway",
    "latlng": "59.911998, 10.805037",
    "email": "gunnar@fue.no",
    "phone": "+47 915 698 39",
    "instructor": "No",
    "technician": "No"
  },
  {
    "name": "TERM Tomasz Sobczak",
    "contactPerson": "Tomasz Sobczak",
    "address": "OPOLSKA 22/8",
    "city": "Chorzów",
    "zip": "41500",
    "country": "Poland",
    "latlng": "50.309297, 18.933044",
    "email": "tomek@nurek.org.pl",
    "phone": "+48 602331885",
    "instructor": "No",
    "technician": "No"
  },
  {
    "name": "Centrum nurkowe Heliox",
    "contactPerson": "Tomasz Maślonka",
    "address": "Rolna 7/22",
    "city": "Katowice",
    "zip": "40555",
    "country": "Poland",
    "latlng": "50.232942, 18.991063",
    "email": "t.maslonka@heliox.pl",
    "phone": "+48 504 092 725",
    "instructor": "No",
    "technician": "No"
  },
  {
    "name": "Nautica Safari Sp, J.",
    "contactPerson": "Andrzej Górnicki",
    "address": "Torunska 5",
    "city": "Kraków",
    "zip": "30056",
    "country": "Poland",
    "latlng": "50.068908, 19.910388",
    "email": "andrzej.gornicki@nautica.pl",
    "phone": "+385 91 2266 115",
    "instructor": "No",
    "technician": "No"
  },
  {
    "name": "Mariusz Linke",
    "contactPerson": null,
    "address": "Padniewo 12",
    "city": "Mogilno",
    "zip": "88300",
    "country": "Poland",
    "latlng": "52.657068, 17.880567",
    "email": "sklep@mariuszlinke.pl",
    "phone": "+48 793540230",
    "instructor": "No",
    "technician": "No"
  },
  {
    "name": "KROKODYLE Sp. z o.o.",
    "contactPerson": "Patrycja Skóra",
    "address": "Dąbrowszczaków 5/1",
    "city": "Olsztyn",
    "zip": 10538,
    "country": "Poland",
    "latlng": "53.779205, 20.483161",
    "email": "sklep@krokodyle.com.pl",
    "phone": "+48 608450707",
    "instructor": "No",
    "technician": "No"
  },
  {
    "name": "Nurkowe Zagłębie",
    "contactPerson": "Daniel Pawłowski",
    "address": "Narutowicza 51",
    "city": "Sosnowiec",
    "zip": "41200",
    "country": "Poland",
    "latlng": "50.280460, 19.149113",
    "email": " nurkowezaglebie@gmail.com",
    "phone": "+48 508088359",
    "instructor": "No",
    "technician": "No"
  },
  {
    "name": "Centrum Nurkowe Born2dive",
    "contactPerson": "Marek Cacaj",
    "address": "Krakowska 1D",
    "city": "Szczecin",
    "zip": "71021",
    "country": "Poland",
    "latlng": "53.413324, 14.495316",
    "email": "marek@born2dive.pl",
    "phone": "+48 509695493",
    "instructor": "No",
    "technician": "No"
  },
  {
    "name": "Szkoła Nurkowania Dive Point",
    "contactPerson": "Krzysiek Haracz",
    "address": "Monte Casino 19e",
    "city": "Szczecin",
    "zip": "70467",
    "country": "Poland",
    "latlng": "53.440608, 14.537282",
    "email": "krzysiek@divepoint.pl",
    "phone": "508105505",
    "instructor": "No",
    "technician": "No"
  },
  {
    "name": "Techgroup",
    "contactPerson": " Jakub Osuch",
    "address": "Bruzdowa 107o",
    "city": "Warszawa",
    "zip": "02991",
    "country": "Poland",
    "latlng": "52.169531, 21.113195",
    "email": "jakub.osuch@techgroup.pl",
    "phone": "+48 501203739",
    "instructor": "No",
    "technician": "No"
  },
  {
    "name": "EMNET Sp. z o.o.",
    "contactPerson": "Pedro Oliveira",
    "address": "ul. Lubczykowa 13",
    "city": "Zabrze",
    "zip": "41807",
    "country": "Poland",
    "latlng": "50.331983, 18.761111",
    "email": "michal@emnet.com.pl",
    "phone": "+48 510792228",
    "instructor": "No",
    "technician": "No"
  },
  {
    "name": "Haliotis Lda",
    "contactPerson": "Pedro Gomes",
    "address": "Rua Casal da Ponte S/N",
    "city": "Atouguia da Baleia",
    "zip": "2525376",
    "country": "Portugal",
    "latlng": "39.350128, -9.358466",
    "email": "pedro.oliveira@haliotis.pt",
    "phone": "+351262781160",
    "instructor": "No",
    "technician": "No"
  },
  {
    "name": "Munaexo, LDA",
    "contactPerson": "José Mário Ventura",
    "address": "Rua dos Pinheiros, 109",
    "city": "Cascais",
    "zip": "2750606",
    "country": "Portugal",
    "latlng": "38.702006, -9.445343",
    "email": "jmventura@munaexo.com",
    "phone": "+351910864986",
    "instructor": "Yes",
    "technician": "No"
  },
  {
    "name": "SCORPIO, Lda",
    "contactPerson": " Pedro Gomes",
    "address": "Caminho da Achada",
    "city": "Funchal",
    "zip": "9020 208F",
    "country": "Portugal",
    "latlng": "32.652560, -16.916582",
    "email": "scorpio@netmadeira.com",
    "phone": "916498101",
    "instructor": "No",
    "technician": "No"
  },
  {
    "name": "Tek-CCR",
    "contactPerson": " Paul Okishev",
    "address": "Uritskogo 24 - 39",
    "city": "Kirov",
    "zip": "610004",
    "country": "Russia",
    "latlng": "58.620421, 49.699017",
    "email": "paul@tek-ccr.ru",
    "phone": "+79615658585",
    "instructor": "No",
    "technician": "No"
  },
  {
    "name": "Club Kusto",
    "contactPerson": "Vadim Shapovalov",
    "address": "-",
    "city": "Moscow",
    "zip": "119991",
    "country": "Russia",
    "latlng": "55.757012, 37.617860",
    "email": "vadim@scubacenter.ru",
    "phone": "+7 925 507 47 76",
    "instructor": "No",
    "technician": "No"
  },
  {
    "name": "DIVE TECH RUS",
    "contactPerson": "Ilya Tsvetev",
    "address": "7-ya Sovetskaya",
    "city": "St. Petersburg",
    "zip": "191144",
    "country": "Russia",
    "latlng": "59.936320, 30.380137",
    "email": "info@divetechrus.com",
    "phone": null,
    "instructor": "No",
    "technician": "No"
  },
  {
    "name": "Living Oceans Pte Ltd",
    "contactPerson": "Ong Chee Hoon",
    "address": "664 North Bridge Rd",
    "city": "Singapore",
    "zip": "188799",
    "country": "Singapore",
    "latlng": "1.301510, 103.858298",
    "email": "cheehoon@livingoceans.com.sg",
    "phone": "+65 6337 9829",
    "instructor": "No",
    "technician": "No"
  },
  {
    "name": "Aronnax s.r.o.",
    "contactPerson": "Robert Korim",
    "address": "Líščie nivy 21",
    "city": "Bratislava",
    "zip": "82108",
    "country": "Slovakia",
    "latlng": "48.156431, 17.141473",
    "email": "centrum@aronnax.sk",
    "phone": "+421 903 228 688",
    "instructor": "No",
    "technician": "No"
  },
  {
    "name": "REEF D.O.O.",
    "contactPerson": " Damir Podnar",
    "address": "Vipavska 54",
    "city": "Nova Gorica",
    "zip": "5000",
    "country": "Slovenia",
    "latlng": "45.941531, 13.648083",
    "email": " info@reef.si",
    "phone": "+38 641687210",
    "instructor": "Yes",
    "technician": "Yes"
  },
  {
    "name": "PJP Technical Diving",
    "contactPerson": " PJ Prinsloo",
    "address": "9 Riley Close",
    "city": "Pineslopes",
    "zip": "2196",
    "country": "South Africa",
    "latlng": "-26.017300, 28.017619",
    "email": "pj@pjptech.co.za",
    "phone": "+27(0)834563929",
    "instructor": "Yes",
    "technician": "Yes"
  },
  {
    "name": "Geko Divers",
    "contactPerson": " Dawie Schlebusch",
    "address": "730 Skukuza StrOlympus",
    "city": "Pretoria",
    "zip": "0043",
    "country": "South Africa",
    "latlng": "-25.789588, 28.329344",
    "email": "dawie@gekodivers.com",
    "phone": "+27 (0)12 991 5311",
    "instructor": "No",
    "technician": "No"
  },
  {
    "name": "JJ.Works",
    "contactPerson": "You Jaechul",
    "address": "Songpa-gu",
    "city": "Seoul",
    "zip": "0534",
    "country": "South Korea",
    "latlng": "37.523119, 127.099192",
    "email": "halcyonkorea@gmail.com",
    "phone": "+82 2929 0858",
    "instructor": "No",
    "technician": "No"
  },
  {
    "name": "Pragmatic Mind",
    "contactPerson": "Park Jin Young",
    "address": "Giheung-gu",
    "city": "Yongin",
    "zip": "16954",
    "country": "South Korea",
    "latlng": "37.248137, 127.093860",
    "email": "vadim@scubacenter.ru",
    "phone": "+1090248598",
    "instructor": "Yes",
    "technician": "Yes"
  },
  {
    "name": "FREATIC SPORTS S.L.",
    "contactPerson": "Josep Guarro",
    "address": "Castillejos, 166",
    "city": "Barcelona",
    "zip": "08013",
    "country": "Spain",
    "latlng": "41.402098, 2.184344",
    "email": "josep@freatic.com",
    "phone": "+34 934 615 970",
    "instructor": "No",
    "technician": "No"
  },
  {
    "name": "Jonas Dive & Watch, S.L",
    "contactPerson": "Jonas Perez",
    "address": "Major, 38",
    "city": "Begues",
    "zip": "08859",
    "country": "Spain",
    "latlng": "41.318051, 2.029283",
    "email": "jonas@jonasdive.com",
    "phone": "+34 936392594",
    "instructor": "No",
    "technician": "No"
  },
  {
    "name": "CASCO ANTIGUO COMERCIAL",
    "contactPerson": "Susana Velarde",
    "address": "C/FORJA 9",
    "city": "Madrid",
    "zip": "28850",
    "country": "Spain",
    "latlng": "40.452178, -3.464331",
    "email": "s.velarde@cascoantiguo.com",
    "phone": "+34 911510250",
    "instructor": "No",
    "technician": "No"
  },
  {
    "name": "Malaga Dive, S.L.",
    "contactPerson": "Emilio Goméz Vargas",
    "address": "C/Daniel Defoe, 2 E-1",
    "city": "Málaga",
    "zip": "29006",
    "country": "Spain",
    "latlng": "36.709093, -4.464419",
    "email": " emilio@malagadive.es",
    "phone": "+34 656856573",
    "instructor": "No",
    "technician": "No"
  },
  {
    "name": "De Profundis, S.L.",
    "contactPerson": "David de las Heras",
    "address": "c/ Molí d\\'en Ginestar 17",
    "city": "Ripollet",
    "zip": "08291",
    "country": "Spain",
    "latlng": "41.667590, 1.852480",
    "email": "david@deprofundis.es",
    "phone": "+34 935 902 091",
    "instructor": "No",
    "technician": "No"
  },
  {
    "name": "Reel Diving AB",
    "contactPerson": "Johan Enqvist",
    "address": "Flöjelbergsgatan 16A",
    "city": "Mölndal",
    "zip": "43153",
    "country": "Sweden",
    "latlng": "57.641255, 12.025399",
    "email": " info@reeldiving.se",
    "phone": "+46 317888902",
    "instructor": "No",
    "technician": "No"
  },
  {
    "name": "Euro Shopping Zone AB",
    "contactPerson": " Zhang XiuMei",
    "address": "Granasvägen 204",
    "city": "Vargön",
    "zip": "46833",
    "country": "Sweden",
    "latlng": "58.356173, 12.388945",
    "email": " info@EuroDivingZone.com",
    "phone": "+46-76-7000766",
    "instructor": "No",
    "technician": "No"
  },
  {
    "name": "ZeroEmissions di Nadir Quarta",
    "contactPerson": "Nadir Quarta",
    "address": "Via alle Gerre 164c",
    "city": "Gerra Piano",
    "zip": "6516",
    "country": "Switzerland",
    "latlng": "46.171273, 8.912936",
    "email": "nad@zeroemissions.ch",
    "phone": "+41 793597374",
    "instructor": "Yes",
    "technician": "No"
  },
  {
    "name": "BlueZone Jari Toivonen",
    "contactPerson": "Jari Toivonen",
    "address": "Treppenweg 13",
    "city": "Hombrechtikon",
    "zip": "8634",
    "country": "Switzerland",
    "latlng": "47.247241, 8.772167",
    "email": "jari.toivonen@bluewin.ch",
    "phone": "+41 788918762",
    "instructor": "No",
    "technician": "No"
  },
  {
    "name": "7Oceans GmbH",
    "contactPerson": " Helmut Spangler",
    "address": "Bahnhofstrasse 30",
    "city": "Horgen",
    "zip": "8810",
    "country": "Switzerland",
    "latlng": "47.260699, 8.600023",
    "email": "helmut@7oceans.ch",
    "phone": "+41 447252911",
    "instructor": "No",
    "technician": "No"
  },
  {
    "name": "Dekostop GmbH",
    "contactPerson": "Roland Zbinden",
    "address": "Dorfstrasse 30",
    "city": "Kleinbösingen",
    "zip": "3213",
    "country": "Switzerland",
    "latlng": "46.893100, 7.205661",
    "email": " info@dekostop.ch",
    "phone": "+41 794678005",
    "instructor": "Yes",
    "technician": "No"
  },
  {
    "name": "Scub\\'H2o Sàrl",
    "contactPerson": " Jean-Luc Mathey",
    "address": "Route de Lausanne 56",
    "city": "Morges",
    "zip": "1110",
    "country": "Switzerland",
    "latlng": "46.516151, 6.506234",
    "email": " jl.mathey@bluewin.ch",
    "phone": "+41 792126908",
    "instructor": "Yes",
    "technician": "No"
  },
  {
    "name": "Tauchshop DAWATA",
    "contactPerson": "Chris Theilkäs",
    "address": "Rütiweg 89a",
    "city": "Ostermundigen",
    "zip": "3072",
    "country": "Switzerland",
    "latlng": "46.956406, 7.505989",
    "email": "info@dawata.ch",
    "phone": "+41 31 932 04 32",
    "instructor": "No",
    "technician": "No"
  },
  {
    "name": "PLONGEE.CH",
    "contactPerson": "Salvatore Barone",
    "address": "Route du Verney 18",
    "city": "Puidoux",
    "zip": "1070",
    "country": "Switzerland",
    "latlng": "46.490477, 6.764941",
    "email": "salvatore@plongee.ch",
    "phone": "+41 79 310 03 21",
    "instructor": "No",
    "technician": "No"
  },
  {
    "name": "Simon Lütolf",
    "contactPerson": null,
    "address": "Hohestrasse 9",
    "city": "Schinznach-Dorf",
    "zip": "5107",
    "country": "Switzerland",
    "latlng": "47.447621, 8.142736",
    "email": " simonluetolf@gmail.com",
    "phone": "+41792460395",
    "instructor": "No",
    "technician": "No"
  },
  {
    "name": "Aqua Dive GmbH",
    "contactPerson": "Rudolf Schäppi",
    "address": "Güterstrasse 10",
    "city": "Spreitenbach",
    "zip": "8957",
    "country": "Switzerland",
    "latlng": "47.427692, 8.361045",
    "email": "info@aqua-dive.ch",
    "phone": "+41 44 740 60 00",
    "instructor": "No",
    "technician": "No"
  },
  {
    "name": "Tauchershop Miaru GmbH",
    "contactPerson": "Diego Cintula",
    "address": "Butzenstrasse 60",
    "city": "Zürich",
    "zip": "8036",
    "country": "Switzerland",
    "latlng": "47.341195, 8.523721",
    "email": "info@tauchershop.ch",
    "phone": "+41 79 656 1908",
    "instructor": "No",
    "technician": "No"
  },
  {
    "name": "Taiwan Dive Buddy Ltd.",
    "contactPerson": " Cheng McGill",
    "address": "Zhongshan North Road",
    "city": "Taipei",
    "zip": "11145",
    "country": "Taiwan",
    "latlng": "25.098525, 121.526852",
    "email": "mcgillcheng@hotmail.com",
    "phone": "+886-935925454",
    "instructor": "No",
    "technician": "No"
  },
  {
    "name": "Poseidon Teknik Sualtı Sis. ve Egt.Tic.Ltd.Sti.",
    "contactPerson": "Cuneyt Cakin",
    "address": "Bahcesehir 1.Kisim Mah.Vali Recep Yazicioglu Cad., No: 15/13 Basaksehir",
    "city": "Istanbul",
    "zip": "34488",
    "country": "Turkey",
    "latlng": "41.071617, 28.693104",
    "email": "cuneyt@poseidonturkey.com",
    "phone": "00905323812450",
    "instructor": "No",
    "technician": "No"
  },
  {
    "name": "TekForce",
    "contactPerson": "Evgeny Komko",
    "address": "Predslavinskaya",
    "city": "Kiev",
    "zip": null,
    "country": "Ukraine",
    "latlng": null,
    "email": "ekomko@gmail.com",
    "phone": null,
    "instructor": "Yes",
    "technician": "No"
  },
  {
    "name": "Jan Berka",
    "contactPerson": null,
    "address": "The Views",
    "city": "Dubai",
    "zip": "00000",
    "country": "United Arab Emirates",
    "latlng": "25.090917, 55.170334",
    "email": " Tech.Diving.UAE@aerea.cz",
    "phone": "+971 552 003 357",
    "instructor": "No",
    "technician": "No"
  },
  {
    "name": "Tec Diving Instructor",
    "contactPerson": " Paul Murphy",
    "address": "11000 Ariock Lane",
    "city": "Austin",
    "zip": "78739",
    "country": "USA",
    "latlng": "30.190725, -97.897387",
    "email": " info@tecdivinginstructor.com",
    "phone": "512 650 1114",
    "instructor": "No",
    "technician": "No"
  },
  {
    "name": "Group K s.a.l.",
    "contactPerson": "Elie Kmeid",
    "address": "19 Pettit Street",
    "city": "Bloomfield",
    "zip": "07003",
    "country": "USA",
    "latlng": "40.815321, -74.187780",
    "email": "eliek@samirsport.com",
    "phone": null,
    "instructor": "No",
    "technician": "No"
  },
  {
    "name": "Golem Gear, Inc.",
    "contactPerson": "Jakub Rehacek",
    "address": "25210 Appaloosa Trl",
    "city": "Brooksville",
    "zip": "3460",
    "country": "USA",
    "latlng": "28.591147, -82.320813",
    "email": "lof@golemgear.com",
    "phone": "813-363-9774",
    "instructor": "Yes",
    "technician": "Yes"
  },
  {
    "name": "Moonlight Scuba",
    "contactPerson": "Tedward Sparks",
    "address": "11610 Sunswept Ln.",
    "city": "Charlotte",
    "zip": "28226",
    "country": "USA",
    "latlng": "35.079751, -80.869506",
    "email": "ryansparks182@yahoo.com",
    "phone": "704-719-0436",
    "instructor": "No",
    "technician": "No"
  },
  {
    "name": "Wakulla Diving Center",
    "contactPerson": "Gregg Stanton",
    "address": "2784 Coastal Highway, Rt 98",
    "city": "Crawfordville",
    "zip": "32327",
    "country": "USA",
    "latlng": "30.089670, -84.386603",
    "email": "greggstanton@wakulladiving.com",
    "phone": "850-745-8208",
    "instructor": "Yes",
    "technician": "No"
  },
  {
    "name": "Add Helium",
    "contactPerson": "Peter Sotis",
    "address": "3590 Northwest 54th Street",
    "city": "Fort Lauderdale",
    "zip": "33309",
    "country": "USA",
    "latlng": "26.192785, -80.197277",
    "email": " info@addhelium.com",
    "phone": "239-300-0913",
    "instructor": "No",
    "technician": "No"
  },
  {
    "name": "Kiss Rebreathers",
    "contactPerson": "Mike Young",
    "address": "4318 South 16th Street",
    "city": "Fort Smith",
    "zip": null,
    "country": "USA",
    "latlng": "35.342643, -94.419587",
    "email": "Kim@kissrebreathers.com",
    "phone": "14797397726",
    "instructor": "No",
    "technician": "No"
  },
  {
    "name": "Carolina Diver",
    "contactPerson": null,
    "address": "53 Cherokee Dr, Georgetown",
    "city": "Georgetown",
    "zip": null,
    "country": "USA",
    "latlng": null,
    "email": "ff651mfd@aol.com",
    "phone": null,
    "instructor": "No",
    "technician": "No"
  },
  {
    "name": "Cave Country Dive Shop",
    "contactPerson": "Kristi Bernot",
    "address": "705 NW Sante Fe Blvd",
    "city": "High Springs",
    "zip": "32643",
    "country": "USA",
    "latlng": "29.833943, -82.598069",
    "email": "info@cavecountrydiving.com",
    "phone": "3864544444",
    "instructor": "No",
    "technician": "No"
  },
  {
    "name": "Mann Overboard, LLC",
    "contactPerson": null,
    "address": "17285 N W 250th Way",
    "city": "High Springs",
    "zip": "32643",
    "country": "USA",
    "latlng": "29.813899, -82.607609",
    "email": "steve@mannoverboard.net",
    "phone": "(352) 575-3786",
    "instructor": "No",
    "technician": "No"
  },
  {
    "name": "Dive Rite",
    "contactPerson": null,
    "address": "175 NW Washington Street",
    "city": "Lake City",
    "zip": "32055",
    "country": "USA",
    "latlng": "30.195096, -82.638427",
    "email": "support@diverite.com",
    "phone": "386-752-1087",
    "instructor": "No",
    "technician": "No"
  },
  {
    "name": "Hollywood Divers",
    "contactPerson": "Karim Hamza",
    "address": "3575 Cahuenga Blvd West",
    "city": "Los Angeles",
    "zip": "90068",
    "country": "USA",
    "latlng": "34.133772, -118.358381",
    "email": " karim@gue.com",
    "phone": "323-969-9800",
    "instructor": "Yes",
    "technician": "No"
  },
  {
    "name": "Cave Adventures",
    "contactPerson": " Edd Sorenson",
    "address": "5211 Limestone Lane",
    "city": "Marianna",
    "zip": "32446",
    "country": "USA",
    "latlng": "30.784254, -85.160547",
    "email": "caveadventurers@hotmail.com",
    "phone": "nedal",
    "instructor": "Yes",
    "technician": "No"
  },
  {
    "name": "Dive-Elements",
    "contactPerson": null,
    "address": "1385 state Route 35, NJ",
    "city": "Middletown",
    "zip": null,
    "country": "USA",
    "latlng": null,
    "email": "jasons@dive-elements.net",
    "phone": null,
    "instructor": "No",
    "technician": "No"
  },
  {
    "name": "Tec Dive Gear",
    "contactPerson": " Sebastian Jastrzebski",
    "address": "103 Valley Dr",
    "city": "Millstone",
    "zip": null,
    "country": "USA",
    "latlng": null,
    "email": "seba.jastrzabek@gmail.com",
    "phone": null,
    "instructor": "No",
    "technician": "No"
  },
  {
    "name": "Underwater Dynamics",
    "contactPerson": "Kovalenko Konstantin",
    "address": "1416 W Center St",
    "city": "Orem",
    "zip": "84057",
    "country": "USA",
    "latlng": "40.297499, -111.729083",
    "email": "info@underwaterdynamics.com",
    "phone": "+1 801 376 2666",
    "instructor": "No",
    "technician": "No"
  },
  {
    "name": "Dive Right in Scuba",
    "contactPerson": "Mike Pederson",
    "address": "24222 W.Lockport S.",
    "city": "Plainfield",
    "zip": "60544",
    "country": "USA",
    "latlng": "41.608700, -88.208416",
    "email": "mike@diverightinscuba.com",
    "phone": "8152678400",
    "instructor": "No",
    "technician": "No"
  },
  {
    "name": "Dive Gear Express",
    "contactPerson": " Joyce Klein",
    "address": "4100 N Powerline Rd",
    "city": "Pompano Beach",
    "zip": "33073",
    "country": "USA",
    "latlng": "26.280319, -80.152221",
    "email": "presales@divegearexpress.com",
    "phone": "9549776009",
    "instructor": "No",
    "technician": "No"
  },
  {
    "name": "Silent Ō Solutions LLC",
    "contactPerson": "Todd Winn",
    "address": "P.O. Box 1260",
    "city": "Puunene",
    "zip": "96784",
    "country": "USA",
    "latlng": "20.869625, -156.454155",
    "email": " Info@silentosolutions.com",
    "phone": "808-385-5558",
    "instructor": "No",
    "technician": "No"
  },
  {
    "name": "Pacific Live LLC",
    "contactPerson": " Zachary Gwirtz",
    "address": "600 Powell Ave SW",
    "city": "Renton",
    "zip": "98057",
    "country": "USA",
    "latlng": "47.475121, -122.229568",
    "email": "Zach@pacificlive.net",
    "phone": "nedal",
    "instructor": "No",
    "technician": "No"
  },
  {
    "name": "UTD North America",
    "contactPerson": " Jonathan Edwardsen",
    "address": "12712 Rock Creek Mill Rd. #3A",
    "city": "Rockville",
    "zip": "20852",
    "country": "USA",
    "latlng": "39.064215, -77.113107",
    "email": " jon@submergedonline.com",
    "phone": "3018810007",
    "instructor": "No",
    "technician": "No"
  },
  {
    "name": "5th Dimension Scuba",
    "contactPerson": "Koos du Preez",
    "address": "3239 Harbor Ave SW",
    "city": "Seattle",
    "zip": "98116",
    "country": "USA",
    "latlng": "47.574461, -122.371184",
    "email": "koos@dupreez.us",
    "phone": "+1-425-358-0123",
    "instructor": "No",
    "technician": "No"
  },
  {
    "name": "SHARK LLC",
    "contactPerson": "Andrea Peterson",
    "address": "6112 71st ave Ct W",
    "city": "Washington",
    "zip": "98467",
    "country": "USA",
    "latlng": "47.201737, -122.531968",
    "email": "sharkllc@outlook.com",
    "phone": "5202275929",
    "instructor": "No",
    "technician": "No"
  },
  {
    "name": "Carlos Lander",
    "contactPerson": "Carlos Lander",
    "address": "Carlos Lander",
    "city": "Carlos Lander",
    "zip": "Carlos Lander",
    "country": "Carlos Lander",
    "latlng": "Carlos Lander",
    "email": "Carlos Lander",
    "phone": "Carlos Lander",
    "instructor": "Carlos Lander",
    "technician": "Carlos Lander"
  }
]